{
  "pois": [
    {
      "type": "cafe",
      "lat": 45.89853422379965,
      "lng": 15.94818563731715,
      "title": "Coffee Stop",
      "description": "Good option to take a break before go to Zagorje"
    },
    {
      "type": "cafe",
      "lat": 45.949504671275186,
      "lng": 15.850051670783373,
      "title": "Coffee stop",
      "description": "Just a coffee stop, nothing special",
      "address": "Stubička 4c, 10297, Jakovlje"
    },
    {
      "type": "viewpoint",
      "lat": 45.890193504135645,
      "lng": 15.956643804511462,
      "title": "Viewpoint",
      "description": "You can rest here, if you have some food or a coffee, take a chance and rest"
    },
    {
      "type": "cafe",
      "lat": 45.69919231214668,
      "lng": 16.07357256518775,
      "title": "Coffee Stop",
      "address": "Ul. Stjepana Fabijančića Jape 116, 10410, Velika Gorica",
      "description": "Nice cafe, but they are accepting only cash!"
    },
    {
      "type": "water",
      "lat": 45.707897027360616,
      "lng": 16.09950715726359,
      "title": "Čiče lake",
      "description": "Nice calm place, pretty nice for brake"
    },
    {
      "type": "castle",
      "lat": 46.310097976191564,
      "lng": 16.33427143003812,
      "title": "Varazdin Castle",
      "description": "Good enought to visit 2nd time"
    },
    {
      "type": "Campsite",
      "lat": 45.362471963883735,
      "lng": 15.68886986983226,
      "title": "Campsite",
      "description": "Bogata Suma - beautiful place to get some rest"
    },
    {
      "type": "Campsite",
      "lat": 45.40885966752349,
      "lng": 15.477639406235683,
      "title": "Campsite",
      "description": "GreenRiver - nice place, little bit expensive"
    },
    {
      "type": "cafe",
      "lat": 45.7163654,
      "lng": 16.0688039,
      "title": "Park Caffe",
      "description": "Cafe in the center of Velika Gorica, meet here with a friends :)"
    },
    {
      "type": "cafe",
      "lat": 45.3383632,
      "lng": 15.9001927,
      "title": "Mlin i pekare",
      "description": "Coffee point, just a regular place"
    },
    {
      "lat": 44.96963612184829,
      "lng": 15.651820944615302,
      "label": "Zeljava",
      "description": "Abadoned Airport, interesting place",
      "isVisible": true
    },
    {
      "lat": 44.880505,
      "lng": 15.618949,
      "label": "Plitvice Jezera",
      "description": "Nice place, but just touched this time",
      "isVisible": true
    }
  ]
}
